[
  {
    "id": 12345765,
    "title": "Dr. Jane Smith",
    "description": "Neurology",
    "phone": "1234567890",
    "location": "Mumbai",
    "image": ""
  },
  {
    "id": 1732695221333,
    "title": "Dr. AJ Nathan",
    "description": "Homeopathy",
    "phone": "9876543211",
    "location": "Gujrat",
    "image": ""
  },
  {
    "id": 1732695221344,
    "title": "Dr. Priya Gupta",
    "description": "Cardiology",
    "phone": "9988776655",
    "location": "Delhi",
    "image": ""
  },
  {
    "id": 1732695221345,
    "title": "Dr. Vikram Soni",
    "description": "Orthopedics",
    "phone": "9876543210",
    "location": "Bangalore",
    "image": ""
  },
  {
    "id": 1732695221346,
    "title": "Dr. Radhika Sharma",
    "description": "Dermatology",
    "phone": "8765432109",
    "location": "Chennai",
    "image": ""
  },
  {
    "id": 1732695221347,
    "title": "Dr. Ravi Kumar",
    "description": "Pediatric",
    "phone": "7654321098",
    "location": "Kolkata",
    "image": ""
  },
  {
    "id": 1732695221348,
    "title": "Dr. Meera Reddy",
    "description": "Psychiatry",
    "phone": "6543210987",
    "location": "Hyderabad",
    "image": ""
  },
  {
    "id": 1732695221349,
    "title": "Dr. Suresh Patel",
    "description": "Gynecology",
    "phone": "5432109876",
    "location": "Ahmedabad",
    "image": ""
  },
  {
    "id": 1732695221350,
    "title": "Dr. Sita Verma",
    "description": "General Medicine",
    "phone": "4321098765",
    "location": "Lucknow",
    "image": ""
  },
  {
    "id": 1732695221352,
    "title": "Dr. Sunita Bhatia",
    "description": "ENT",
    "phone": "2109876543",
    "location": "Noida",
    "image": ""
  },
  {
    "id": 1732695221353,
    "title": "Dr. Ashok Yadav",
    "description": "Urology",
    "phone": "1098765432",
    "location": "Surat",
    "image": ""
  },
  {
    "id": 1732695221354,
    "title": "Dr. Neelam Agarwal",
    "description": "Endocrinology",
    "phone": "8765432109",
    "location": "Jaipur",
    "image": ""
  },
  {
    "id": 1732695221355,
    "title": "Dr. Arun Kumar",
    "description": "Gastroenterology",
    "phone": "7654321098",
    "location": "Indore",
    "image": ""
  },
  {
    "id": 1732695221356,
    "title": "Dr. Rekha Singh",
    "description": "Ophthalmology",
    "phone": "6543210987",
    "location": "Chandigarh",
    "image": ""
  },
  {
    "id": 1732695221357,
    "title": "Dr. Amit Mehta",
    "description": "Surgery",
    "phone": "5432109876",
    "location": "Gurgaon",
    "image": ""
  },
  {
    "id": 1732695221358,
    "title": "Dr. Kiran Choudhury",
    "description": "Hematology",
    "phone": "4321098765",
    "location": "Kanpur",
    "image": ""
  },
  {
    "id": 1732695221359,
    "title": "Dr. Mitali Kapoor",
    "description": "Radiology",
    "phone": "3210987654",
    "location": "Nagpur",
    "image": ""
  },
  {
    "id": 1732695221360,
    "title": "Dr. Nitin Agarwal",
    "description": "Plastic Surgery",
    "phone": "2109876543",
    "location": "Patna",
    "image": ""
  },
  {
    "id": 1732695221361,
    "title": "Dr. Shalini Rani",
    "description": "Anesthesiology",
    "phone": "1098765432",
    "location": "Faridabad",
    "image": ""
  },
  {
    "id": 1732695221362,
    "title": "Dr. Pradeep Mishra",
    "description": "Neurosurgery",
    "phone": "8765432109",
    "location": "Vadodara",
    "image": ""
  },
  {
    "id": 1732695221363,
    "title": "Dr. Tanvi Shah",
    "description": "Pulmonology",
    "phone": "7654321098",
    "location": "Rajkot",
    "image": ""
  },
  {
    "id": 1732695221364,
    "title": "Dr. Yash Thakur",
    "description": "Cardiothoracic Surgery",
    "phone": "6543210988",
    "location": "Coimbatore",
    "image": ""
  },
  {
    "id": 1732695221365,
    "title": "Dr. Kamini Joshi",
    "description": "Rheumatology",
    "phone": "5432109876",
    "location": "Vijayawada",
    "image": ""
  },
  {
    "id": 1732695221366,
    "title": "Dr. Rajesh Saini",
    "description": "Infectious Diseases",
    "phone": "4321098765",
    "location": "Raipur",
    "image": ""
  },
  {
    "id": 1732695221367,
    "title": "Dr. Monika Pathak",
    "description": "Geriatrics",
    "phone": "3210987654",
    "location": "Bhopal",
    "image": ""
  }
]